[
  {
    "id": "1",
    "name": "Christian Hent",
    "image": "https://www.endomondo.com/resources/gfx/picture/25778362/thumbnail.jpg",
    "icon": "https://www.endomondo.com/resources/gfx/picture/25778362/thumbnail.jpg",
    "summary": false,
    "url": "https://www.endomondo.com/profile/15238177",
    "geo": {
      "latitude": "49.448",
      "longitude": "11.065"
    },
    "properties": false
  },
  {
    "id": "2",
    "name": "Gerald Martin",
    "image": "https://www.endomondo.com/resources/gfx/picture/20264841/thumbnail.jpg",
    "icon": "https://www.endomondo.com/resources/gfx/picture/20264841/thumbnail.jpg",
    "summary": false,
    "url": "https://www.endomondo.com/profile/21362236",
    "geo": {
      "latitude": "50.668333",
      "longitude": "12.671389"
    },
    "properties": false
  },
  {
    "id": "3",
    "name": "Radek Suski",
    "image": "https://www.endomondo.com/resources/gfx/picture/10419690/thumbnail.jpg",
    "icon": "https://www.endomondo.com/resources/gfx/picture/10419690/thumbnail.jpg",
    "summary": false,
    "url": "https://www.endomondo.com/profile/13054708",
    "geo": {
      "latitude": "49.925155",
      "longitude": "9.004505"
    },
    "properties": false
  },
  {
    "id": "4",
    "name": "Randy Carey",
    "image": "https://www.endomondo.com/resources/gfx/picture/12344747/thumbnail.jpg",
    "icon": "https://www.endomondo.com/resources/gfx/picture/12344747/thumbnail.jpg",
    "summary": false,
    "url": "https://www.endomondo.com/profile/17128107",
    "geo": {
      "latitude": "44.980194",
      "longitude": "-93.2640755"
    },
    "properties": false
  },
  {
    "id": "5",
    "name": "Stefanie Thielmann",
    "image": "https://www.endomondo.com/resources/gfx/picture/23978330/thumbnail.jpg",
    "icon": "https://www.endomondo.com/resources/gfx/picture/23978330/thumbnail.jpg",
    "summary": false,
    "url": "https://www.endomondo.com/profile/23049966",
    "geo": {
      "latitude": "49.485",
      "longitude": "11.105278"
    },
    "properties": false
  },
  {
    "id": "6",
    "name": "Pisan Chueachatchai",
    "image": "https://www.endomondo.com/resources/gfx/picture/10041502/thumbnail.jpg",
    "icon": "https://www.endomondo.com/resources/gfx/picture/10041502/thumbnail.jpg",
    "summary": false,
    "url": "https://www.endomondo.com/profile/14300975",
    "geo": {
      "latitude": "13.862222",
      "longitude": "100.513333"
    },
    "properties": false
  },
  {
    "id": "7",
    "name": "Slawek Sikora",
    "image": "https://www.endomondo.com/resources/gfx/picture/7252431/thumbnail.jpg",
    "icon": "https://www.endomondo.com/resources/gfx/picture/7252431/thumbnail.jpg",
    "summary": false,
    "url": "https://www.endomondo.com/profile/12868990",
    "geo": {
      "latitude": "50.259722",
      "longitude": "19.021667"
    },
    "properties": false
  },
  {
    "id": "8",
    "name": "Danuta Zarzeczna",
    "image": "https://www.endomondo.com/resources/gfx/picture/5938716/thumbnail.jpg",
    "icon": "https://www.endomondo.com/resources/gfx/picture/5938716/thumbnail.jpg",
    "summary": false,
    "url": "https://www.endomondo.com/profile/11677519",
    "geo": {
      "latitude": "52.65",
      "longitude": "19.083333"
    },
    "properties": false
  },
  {
    "id": "9",
    "name": "Piotr Szarmach",
    "image": "https://www.endomondo.com/resources/gfx/picture/5804696/thumbnail.jpg",
    "icon": "https://www.endomondo.com/resources/gfx/picture/5804696/thumbnail.jpg",
    "summary": false,
    "url": "https://www.endomondo.com/profile/11546472",
    "geo": {
      "latitude": "54.433333",
      "longitude": "18.55"
    },
    "properties": false
  },
  {
    "id": "10",
    "name": "Sebastian Boncol",
    "image": "https://www.endomondo.com/resources/gfx/picture/1967966/thumbnail.jpg",
    "icon": "https://www.endomondo.com/resources/gfx/picture/1967966/thumbnail.jpg",
    "summary": false,
    "url": "https://www.endomondo.com/profile/5523223",
    "geo": {
      "latitude": "50.259726",
      "longitude": "19.021669"
    },
    "properties": false
  },
  {
    "id": "11",
    "name": "Wojciech Sobczak",
    "image": "https://www.endomondo.com/resources/gfx/picture/7474132/thumbnail.jpg",
    "icon": "https://www.endomondo.com/resources/gfx/picture/7474132/thumbnail.jpg",
    "summary": false,
    "url": "https://www.endomondo.com/profile/1505289",
    "geo": {
      "latitude": "53.7",
      "longitude": "17.55"
    },
    "properties": false
  },
  {
    "id": "12",
    "name": "Alan Langford",
    "image": "https://www.endomondo.com/resources/default/user/thumbnail.png",
    "icon": "https://www.endomondo.com/resources/default/user/thumbnail.png",
    "summary": false,
    "url": "https://www.endomondo.com/profile/24097149",
    "geo": {
      "latitude": "44.3",
      "longitude": "-77.8"
    },
    "properties": false
  },
  {
    "id": "13",
    "name": "Seweryn Kumor",
    "image": "https://www.endomondo.com/resources/gfx/picture/10390917/thumbnail.jpg",
    "icon": "https://www.endomondo.com/resources/gfx/picture/10390917/thumbnail.jpg",
    "summary": false,
    "url": "https://www.endomondo.com/profile/11509768",
    "geo": {
      "latitude": "50.3",
      "longitude": "18.783333"
    },
    "properties": false
  },
  {
    "id": "14",
    "name": "Tomasz Mączka",
    "image": "https://www.endomondo.com/resources/gfx/picture/11431381/thumbnail.jpg",
    "icon": "https://www.endomondo.com/resources/gfx/picture/11431381/thumbnail.jpg",
    "summary": false,
    "url": "https://www.endomondo.com/profile/16448444",
    "geo": {
      "latitude": "51.683333",
      "longitude": "17.433333"
    },
    "properties": false
  },
  {
    "id": "15",
    "name": "Tomek Gratkowski",
    "image": "https://www.endomondo.com/resources/gfx/picture/10808471/thumbnail.jpg",
    "icon": "https://www.endomondo.com/resources/gfx/picture/10808471/thumbnail.jpg",
    "summary": false,
    "url": "https://www.endomondo.com/profile/3891320",
    "geo": {
      "latitude": "51.883333",
      "longitude": "17.016667"
    },
    "properties": false
  },
  {
    "id": "16",
    "name": "Magdalena Breitkopf",
    "image": "https://www.endomondo.com/resources/gfx/picture/23720556/thumbnail.jpg",
    "icon": "https://www.endomondo.com/resources/gfx/picture/23720556/thumbnail.jpg",
    "summary": false,
    "url": "https://www.endomondo.com/profile/23140607",
    "geo": {
      "latitude": "50.166667",
      "longitude": "19.00"
    },
    "properties": false
  },
  {
    "id": "17",
    "name": "Veselin Stefanov",
    "image": "https://www.endomondo.com/resources/gfx/picture/26059342/thumbnail.jpg",
    "icon": "https://www.endomondo.com/resources/gfx/picture/26059342/thumbnail.jpg",
    "summary": false,
    "url": "https://www.endomondo.com/profile/24304165",
    "geo": {
      "latitude": "42.866667",
      "longitude": "25.333333"
    },
    "properties": false
  },
  {
    "id": "18",
    "name": "Thilo Petry",
    "image": "https://www.endomondo.com/resources/gfx/picture/23580525/thumbnail.jpg",
    "icon": "https://www.endomondo.com/resources/gfx/picture/23580525/thumbnail.jpg",
    "summary": false,
    "url": "https://www.endomondo.com/profile/16607111",
    "geo": {
      "latitude": "49.469167",
      "longitude": "11.200833"
    },
    "properties": false
  },
  {
    "id": "19",
    "name": "Wojciech Labas",
    "image": "https://www.endomondo.com/resources/gfx/picture/5629348/thumbnail.jpg",
    "icon": "https://www.endomondo.com/resources/gfx/picture/5629348/thumbnail.jpg",
    "summary": false,
    "url": "https://www.endomondo.com/profile/11173903",
    "geo": {
      "latitude": "54.583333",
      "longitude": "18.4"
    },
    "properties": false
  },
  {
    "id": "20",
    "name": "Przemysław Pałyga",
    "image": "https://www.endomondo.com/resources/gfx/picture/2724245/thumbnail.jpg",
    "icon": "https://www.endomondo.com/resources/gfx/picture/2724245/thumbnail.jpg",
    "summary": false,
    "url": "https://www.endomondo.com/profile/6761358",
    "geo": {
      "latitude": "51.216667",
      "longitude": "18.566667"
    },
    "properties": false
  },
  {
    "id": "21",
    "name": "Hans van der Meer",
    "image": "https://www.endomondo.com/resources/gfx/picture/24235208/thumbnail.jpg",
    "icon": "https://www.endomondo.com/resources/gfx/picture/24235208/thumbnail.jpg",
    "summary": false,
    "url": "https://www.endomondo.com/profile/21622124",
    "geo": {
      "latitude": "51.983333",
      "longitude": "5.916667"
    },
    "properties": false
  },
  {
    "id": "22",
    "name": "Sándor Balikó",
    "image": "https://www.endomondo.com/resources/gfx/picture/21737263/thumbnail.jpg",
    "icon": "https://www.endomondo.com/resources/gfx/picture/21737263/thumbnail.jpg",
    "summary": false,
    "url": "https://www.endomondo.com/profile/15353611",
    "geo": {
      "latitude": "47.195556",
      "longitude": "18.408889"
    },
    "properties": false
  },
  {
    "id": "23",
    "name": "Magdalena Psykowska",
    "image": "https://www.endomondo.com/resources/gfx/picture/14831449/thumbnail.jpg",
    "icon": "https://www.endomondo.com/resources/gfx/picture/14831449/thumbnail.jpg",
    "summary": false,
    "url": "https://www.endomondo.com/profile/14654605",
    "geo": {
      "latitude": "52.659167",
      "longitude": "19.068056"
    },
    "properties": false
  },
  {
    "id": "24",
    "name": "Danuta Idzik",
    "image": "https://www.endomondo.com/resources/gfx/picture/23851590/thumbnail.jpg",
    "icon": "https://www.endomondo.com/resources/gfx/picture/23851590/thumbnail.jpg",
    "summary": false,
    "url": "https://www.endomondo.com/profile/22982587",
    "geo": {
      "latitude": "50.166667",
      "longitude": "19.00"
    },
    "properties": false
  },
  {
    "id": "25",
    "name": "Andy Connell",
    "image": "https://www.endomondo.com/resources/gfx/picture/24119184/thumbnail.jpg",
    "icon": "https://www.endomondo.com/resources/gfx/picture/24119184/thumbnail.jpg",
    "summary": false,
    "url": "https://www.endomondo.com/profile/1904173",
    "geo": {
      "latitude": "53.391667",
      "longitude": "-2.597222"
    },
    "properties": false
  },
  {
    "id": "26",
    "name": "Carlos M. Camara",
    "image": "https://www.endomondo.com/resources/gfx/picture/24722847/thumbnail.jpg",
    "icon": "https://www.endomondo.com/resources/gfx/picture/24722847/thumbnail.jpg",
    "summary": false,
    "url": "https://www.endomondo.com/profile/23327202",
    "geo": {
      "latitude": "36.766667",
      "longitude": "-2.616667"
    },
    "properties": false
  },
  {
    "id": "27",
    "name": "Gunjan Patel",
    "image": "https://www.endomondo.com/resources/gfx/picture/27491634/thumbnail.jpg",
    "icon": "https://www.endomondo.com/resources/gfx/picture/27491634/thumbnail.jpg",
    "summary": false,
    "url": "https://www.endomondo.com/profile/24488223",
    "geo": {
      "latitude": "23.101935",
      "longitude": "72.536742"
    },
    "properties": false
  },
  {
    "id": "28",
    "name": "Tony Partridge",
    "image": "https://www.endomondo.com/resources/gfx/picture/29472565/thumbnail.jpg",
    "icon": "https://www.endomondo.com/resources/gfx/picture/29472565/thumbnail.jpg",
    "summary": false,
    "url": "https://www.endomondo.com/profile/509717",
    "geo": {
      "latitude": "54.156415",
      "longitude": "-4.486255"
    },
    "properties": false
  },
  {
    "id": "29",
    "name": "Barry Cunningham",
    "image": "https://www.endomondo.com/resources/gfx/picture/29151129/thumbnail.jpg",
    "icon": "https://www.endomondo.com/resources/gfx/picture/29151129/thumbnail.jpg",
    "summary": false,
    "url": "https://www.endomondo.com/profile/26285127",
    "geo": {
      "latitude": "52.105605",
      "longitude": "-8.690823"
    },
    "properties": false
  },
  {
    "id": "30",
    "name": "Luis Macho",
    "image": "https://www.endomondo.com/resources/gfx/picture/236797/thumbnail.jpg",
    "icon": "https://www.endomondo.com/resources/gfx/picture/236797/thumbnail.jpg",
    "summary": false,
    "url": "https://www.endomondo.com/profile/1550124",
    "geo": {
      "latitude": "42.010214",
      "longitude": "-4.532448"
    },
    "properties": false
  },
  {
    "id": "31",
    "name": "Venus Thammasiri",
    "image": "https://www.endomondo.com/resources/gfx/picture/4566028/thumbnail.jpg",
    "icon": "https://www.endomondo.com/resources/gfx/picture/4566028/thumbnail.jpg",
    "summary": false,
    "url": "https://www.endomondo.com/profile/10103954",
    "geo": {
      "latitude": "13.901247",
      "longitude": "100.542549"
    },
    "properties": false
  },
  {
    "id": "32",
    "name": "Sigrid Suski",
    "image": "https://www.endomondo.com/resources/gfx/picture/29475725/thumbnail.jpg",
    "icon": "https://www.endomondo.com/resources/gfx/picture/29475725/thumbnail.jpg",
    "summary": false,
    "url": "https://www.endomondo.com/profile/14827977",
    "geo": {
      "latitude": "49.925155",
      "longitude": "9.004505"
    },
    "properties": false
  }
]